{"id": 0,"street": "Street 0","city": "Winterthur","country": "Switzerland","country_code": "CH","canton": "Zurich","canton_code": "ZH","lat": 47.505637,"lon": 8.724139,"filling_level": 0,"time": 1610298900,"maintenance": false, "update": false}
    {"id": 1,"street": "Street 1","city": "Zurich","country": "Switzerland","country_code": "CH","canton": "Zurich","canton_code": "ZH","lat": 47.369501,"lon": 8.538847,"filling_level": 62,"time": 1610298901,"maintenance": false, "update": false}
    {"id": 2,"street": "Street 2","city": "Bern","country": "Switzerland","country_code": "CH","canton": "Bern","canton_code": "BE","lat": 46.948384,"lon": 7.439946,"filling_level": 68,"time": 1610298902,"maintenance": false, "update": false}
    {"id": 3,"street": "Street 3","city": "Luzern","country": "Switzerland","country_code": "CH","canton": "Luzern","canton_code": "LU","lat": 47.055245,"lon": 8.305225,"filling_level": 65,"time": 1610298903,"maintenance": false, "update": false}
    {"id": 4,"street": "Street 4","city": "Altdorf","country": "Switzerland","country_code": "CH","canton": "Uri","canton_code": "UR","lat": 46.880884,"lon": 8.643002,"filling_level": 68,"time": 1610298904,"maintenance": false, "update": false}
    {"id": 5,"street": "Street 5","city": "Schwyz","country": "Switzerland","country_code": "CH","canton": "Schwyz","canton_code": "SZ","lat": 47.021109,"lon": 8.654043,"filling_level": 65,"time": 1610298905,"maintenance": false, "update": false}
    {"id": 6,"street": "Street 6","city": "Sarnen","country": "Switzerland","country_code": "CH","canton": "Obwalden","canton_code": "OW","lat": 46.896079,"lon": 8.24438,"filling_level": 61,"time": 1610298906,"maintenance": false, "update": false}
    {"id": 7,"street": "Street 7","city": "Stans","country": "Switzerland","country_code": "CH","canton": "Nidwalden","canton_code": "NW","lat": 46.957229,"lon": 8.36617,"filling_level": 66,"time": 1610298907,"maintenance": false, "update": false}
    {"id": 8,"street": "Street 8","city": "Glarus","country": "Switzerland","country_code": "CH","canton": "Glarus","canton_code": "GL","lat": 47.041239,"lon": 9.062997,"filling_level": 69,"time": 1610298908,"maintenance": false, "update": false}
    {"id": 9,"street": "Street 9","city": "Zug","country": "Switzerland","country_code": "CH","canton": "Zug","canton_code": "ZG","lat": 47.167576,"lon": 8.519434,"filling_level": 68,"time": 1610298909,"maintenance": false, "update": false}
    {"id": 10,"street": "Street 10","city": "Fribourg","country": "Switzerland","country_code": "CH","canton": "Fribourg","canton_code": "FR","lat": 46.803191,"lon": 7.149124,"filling_level": 69,"time": 1610298910,"maintenance": true, "update": false}
    {"id": 11,"street": "Street 11","city": "Solothurn","country": "Switzerland","country_code": "CH","canton": "Solothurn","canton_code": "SO","lat": 47.210102,"lon": 7.529706,"filling_level": 68,"time": 1610298911,"maintenance": false, "update": false}
    {"id": 12,"street": "Street 12","city": "Basel_Stadt","country": "Switzerland","country_code": "CH","canton": "Basel","canton_code": "BS","lat": 47.559017,"lon": 7.58876,"filling_level": 61,"time": 1610298912,"maintenance": false, "update": false}
    {"id": 13,"street": "Street 13","city": "Liestal","country": "Switzerland","country_code": "CH","canton": "Basel_Landschaft","canton_code": "BL","lat": 47.484987,"lon": 7.734502,"filling_level": 59,"time": 1610298913,"maintenance": false, "update": false}
    {"id": 14,"street": "Street 14","city": "Schaffhausen","country": "Switzerland","country_code": "CH","canton": "Schaffhausen","canton_code": "SH","lat": 47.698682,"lon": 8.632284,"filling_level": 64,"time": 1610298914,"maintenance": false, "update": false}
    {"id": 15,"street": "Street 15","city": "Herisau","country": "Switzerland","country_code": "CH","canton": "Appenzell_Ausserrhoden","canton_code": "AR","lat": 47.388917,"lon": 9.275753,"filling_level": 64,"time": 1610298915,"maintenance": false, "update": false}
    {"id": 16,"street": "Street 16","city": "Appenzell","country": "Switzerland","country_code": "CH","canton": "Appenzell_Innerrhoden","canton_code": "AI","lat": 47.332025,"lon": 9.40592,"filling_level": 69,"time": 1610298916,"maintenance": false, "update": false}
    {"id": 17,"street": "Street 17","city": "St_Gallen","country": "Switzerland","country_code": "CH","canton": "St_Gallen","canton_code": "SG","lat": 47.425957,"lon": 9.37646,"filling_level": 73,"time": 1610298917,"maintenance": false, "update": false}
    {"id": 18,"street": "Street 18","city": "Chur","country": "Switzerland","country_code": "CH","canton": "Graubunden","canton_code": "GR","lat": 46.851053,"lon": 9.527574,"filling_level": 72,"time": 1610298918,"maintenance": false,"update": false}
    {"id": 19,"street": "Street 19","city": "Aarau","country": "Switzerland","country_code": "CH","canton": "Aargau","canton_code": "AG","lat": 47.390236,"lon": 8.045227,"filling_level": 70,"time": 1610298919,"maintenance": false,"update": false}
    {"id": 20,"street": "Street 20","city": "Frauenfeld","country": "Switzerland","country_code": "CH","canton": "Thurgau","canton_code": "TG","lat": 47.557165,"lon": 8.894863,"filling_level": 68,"time": 1610298920,"maintenance": true,"update": false}
    {"id": 21,"street": "Street 21","city": "Bellinzona","country": "Switzerland","country_code": "CH","canton": "Tessin","canton_code": "TI","lat": 46.191535,"lon": 9.024186,"filling_level": 61,"time": 1610298921,"maintenance": false,"update": false}
    {"id": 22,"street": "Street 22","city": "Lausanne","country": "Switzerland","country_code": "CH","canton": "Vaud","canton_code": "VD","lat": 46.520039,"lon": 6.633279,"filling_level": 64,"time": 1610298922,"maintenance": false, "update": false}
    {"id": 23,"street": "Street 23","city": "Sion","country": "Switzerland","country_code": "CH","canton": "Wallis","canton_code": "VS","lat": 46.232315,"lon": 7.360869,"filling_level": 72,"time": 1610298923,"maintenance": true,"update": false}
    {"id": 24,"street": "Street 24","city": "Neuchatel","country": "Switzerland","country_code": "CH","canton": "Neuchatel","canton_code": "NE","lat": 46.993842,"lon": 6.929066,"filling_level": 67,"time": 1610298924,"maintenance": false,"update": false}
    {"id": 25,"street": "Street 25","city": "Geneve","country": "Switzerland","country_code": "CH","canton": "Geneve","canton_code": "GE","lat": 46.205108,"lon": 6.142976,"filling_level": 71,"time": 1610298925,"maintenance": false, "update": false}
    {"id": 26,"street": "Street 26","city": "Delemont","country": "Switzerland","country_code": "CH","canton": "Jura","canton_code": "JU","lat": 47.363905,"lon": 7.34596,"filling_level": 64,"time": 1610298926,"maintenance": false, "update": false}