{"id": 0,"street": "Street 0","city": "Abfallverwertung","country": "Switzerland","country_code": "CH","canton": "Zurich","canton_code": "ZH","lat": 47.4982568,"lon": 8.7514953,"filling_level": 0,"time": 1610284500,"maintenance": false, "update": false}
{"id": 1,"street": "Street 1","city": "Iberg","country": "Switzerland","country_code": "CH","canton": "Zurich","canton_code": "ZH","lat": 47.4660596,"lon": 8.7792541,"filling_level": 47,"time": 1610284501,"maintenance": false,"update": false}
{"id": 2,"street": "Street 2","city": "Eidberg","country": "Switzerland","country_code": "CH","canton": "Zurich","canton_code": "ZH","lat": 47.47412,"lon": 8.7945817,"filling_level": 56,"time": 1610284502,"maintenance": false,"update": false}
{"id": 3,"street": "Street 3","city": "Bahnhof_Seen","country": "Switzerland","country_code": "CH","canton": "Zurich","canton_code": "ZH","lat": 47.4874281,"lon": 8.7667673,"filling_level": 53,"time": 1610284503,"maintenance": false, "update": false}
{"id": 4,"street": "Street 4","city": "Bahnhof_Wulflingen","country": "Switzerland","country_code": "CH","canton": "Zurich","canton_code": "ZH","lat": 47.5064599,"lon": 8.6809643,"filling_level": 56,"time": 1610284504,"maintenance": false,"update": false}
{"id": 5,"street": "Street 5","city": "Bahnhof_Toss","country": "Switzerland","country_code": "CH","canton": "Zurich","canton_code": "ZH","lat": 47.4898671,"lon": 8.7100885,"filling_level": 53,"time": 1610284505,"maintenance": false,"update": false}
{"id": 6,"street": "Street 6","city": "Bahnhof_Seuzach","country": "Switzerland","country_code": "CH","canton": "Zurich","canton_code": "ZH","lat": 47.5356393,"lon": 8.7390219,"filling_level": 49,"time": 1610284506,"maintenance": false, "update": false}
{"id": 7,"street": "Street 7","city": "Bahnhof_Gruze","country": "Switzerland","country_code": "CH","canton": "Zurich","canton_code": "ZH","lat": 47.4987187,"lon": 8.7510097,"filling_level": 54,"time": 1610284507,"maintenance": false,"update": false}
{"id": 8,"street": "Street 8","city": "Kantonsschule_Rychenberg","country": "Switzerland","country_code": "CH","canton": "Zurich","canton_code": "ZH","lat": 47.50506485,"lon": 8.738057076445287,"filling_level": 57,"time": 1610284508,"maintenance": false,"update": false}
{"id": 9,"street": "Street 9","city": "Stadthaus","country": "Switzerland","country_code": "CH","canton": "Zurich","canton_code": "ZH","lat": 47.5004116,"lon": 8.7306033,"filling_level": 56,"time": 1610284509,"maintenance": false,"update": false}
{"id": 10,"street": "Street 10","city": "Fachschule_Hard","country": "Switzerland","country_code": "CH","canton": "Zurich","canton_code": "ZH","lat": 47.49940865,"lon": 8.694544963356769,"filling_level": 57,"time": 1610284510,"maintenance": true,"update": false}
{"id": 11,"street": "Street 11","city": "Technopark","country": "Switzerland","country_code": "CH","canton": "Zurich","canton_code": "ZH","lat": 47.494773,"lon": 8.7162875,"filling_level": 56,"time": 1610284511,"maintenance": false, "update": false}
{"id": 12,"street": "Street 12","city": "Breite","country": "Switzerland","country_code": "CH","canton": "Zurich","canton_code": "ZH","lat": 47.4903458,"lon": 8.7260667,"filling_level": 49,"time": 1610284512,"maintenance": false,"update": false}
{"id": 13,"street": "Street 13","city": "Kantonsspital","country": "Switzerland","country_code": "CH","canton": "Zurich","canton_code": "ZH","lat": 47.506859899999995,"lon": 8.728524077691285,"filling_level": 47,"time": 1610284513,"maintenance": false,"update": false}
{"id": 14,"street": "Street 14","city": "Museum_Romerholz","country": "Switzerland","country_code": "CH","canton": "Zurich","canton_code": "ZH","lat": 47.511388350000004,"lon": 8.731626998025042,"filling_level": 52,"time": 1610284514,"maintenance": false,"update": false}
{"id": 15,"street": "Street 15","city": "Sulzer","country": "Switzerland","country_code": "CH","canton": "Zurich","canton_code": "ZH","lat": 47.4982047,"lon": 8.7189219,"filling_level": 52,"time": 1610284515,"maintenance": false,"update": false}
{"id": 16,"street": "Street 16","city": "Dattnau","country": "Switzerland","country_code": "CH","canton": "Zurich","canton_code": "ZH","lat": 47.4851347,"lon": 8.6915256,"filling_level": 57,"time": 1610284516,"maintenance": false,"update": false}
{"id": 17,"street": "Street 17","city": "Lindspitz","country": "Switzerland","country_code": "CH","canton": "Zurich","canton_code": "ZH","lat": 47.5091858,"lon": 8.7229233,"filling_level": 61,"time": 1610284517,"maintenance": false, "update": false}
{"id": 18,"street": "Street 18","city": "Rosenberg","country": "Switzerland","country_code": "CH","canton": "Zurich","canton_code": "ZH","lat": 47.5192734,"lon": 8.721567,"filling_level": 60,"time": 1610284518,"maintenance": false,"update": false}
{"id": 19,"street": "Street 19","city": "Alte_Kaserne","country": "Switzerland","country_code": "CH","canton": "Zurich","canton_code": "ZH","lat": 47.4978868,"lon": 8.7314601,"filling_level": 58,"time": 1610284519,"maintenance": false, "update": false}
{"id": 20,"street": "Street 20","city": "ZHAW_Technikum","country": "Switzerland","country_code": "CH","canton": "Zurich","canton_code": "ZH","lat": 47.4979024,"lon": 8.7296453,"filling_level": 56,"time": 1610284520,"maintenance": true,"update": false}
{"id": 21,"street": "Street 21","city": "ZHAW_Volkart","country": "Switzerland","country_code": "CH","canton": "Zurich","canton_code": "ZH","lat": 47.50213145,"lon": 8.72623043172608,"filling_level": 49,"time": 1610284521,"maintenance": false,"update": false}
{"id": 22,"street": "Street 22","city": "Schloss_Wulflingen","country": "Switzerland","country_code": "CH","canton": "Zurich","canton_code": "ZH","lat": 47.511302150000006,"lon": 8.699386223507224,"filling_level": 52,"time": 1610284522,"maintenance": false,"update": false}
{"id": 23,"street": "Street 23","city": "Rosenau","country": "Switzerland","country_code": "CH","canton": "Zurich","canton_code": "ZH","lat": 47.4870226,"lon": 8.7085805,"filling_level": 60,"time": 1610284523,"maintenance": true, "update": false}
{"id": 24,"street": "Street 24","city": "Feuerwehr","country": "Switzerland","country_code": "CH","canton": "Zurich","canton_code": "ZH","lat": 47.49534385,"lon": 8.73348852153845,"filling_level": 57,"time": 1610284524,"maintenance": false, "update": false}
{"id": 25,"street": "Street 25","city": "Technorama","country": "Switzerland","country_code": "CH","canton": "Zurich","canton_code": "ZH","lat": 47.5133411,"lon": 8.7631665,"filling_level": 59,"time": 1610284525,"maintenance": false,"update": false}
{"id": 26,"street": "Street 26","city": "ConCordia","country": "Switzerland","country_code": "CH","canton": "Zurich","canton_code": "ZH","lat": 47.5090675,"lon": 8.7172061,"filling_level": 52,"time": 1610284526,"maintenance": false,"update": false}

