{"id": 0,"street": "Street 0","city": "Abfallverwertung","country": "Switzerland","country_code": "CH","canton": "Zurich","canton_code": "ZH","lat": 47.4982568,"lon": 8.7514953,"filling_level": 0,"time": 1610316900,"maintenance": false, "update": false}
{"id": 1,"street": "Street 1","city": "Iberg","country": "Switzerland","country_code": "CH","canton": "Zurich","canton_code": "ZH","lat": 47.4660596,"lon": 8.7792541,"filling_level": 74,"time": 1610316901,"maintenance": false,"update": false}
{"id": 2,"street": "Street 2","city": "Eidberg","country": "Switzerland","country_code": "CH","canton": "Zurich","canton_code": "ZH","lat": 47.47412,"lon": 8.7945817,"filling_level": 83,"time": 1610316902,"maintenance": false,"update": false}
{"id": 3,"street": "Street 3","city": "Bahnhof_Seen","country": "Switzerland","country_code": "CH","canton": "Zurich","canton_code": "ZH","lat": 47.4874281,"lon": 8.7667673,"filling_level": 80,"time": 1610316903,"maintenance": false, "update": false}
{"id": 4,"street": "Street 4","city": "Bahnhof_Wulflingen","country": "Switzerland","country_code": "CH","canton": "Zurich","canton_code": "ZH","lat": 47.5064599,"lon": 8.6809643,"filling_level": 83,"time": 1610316904,"maintenance": false,"update": false}
{"id": 5,"street": "Street 5","city": "Bahnhof_Toss","country": "Switzerland","country_code": "CH","canton": "Zurich","canton_code": "ZH","lat": 47.4898671,"lon": 8.7100885,"filling_level": 80,"time": 1610316905,"maintenance": false,"update": false}
{"id": 6,"street": "Street 6","city": "Bahnhof_Seuzach","country": "Switzerland","country_code": "CH","canton": "Zurich","canton_code": "ZH","lat": 47.5356393,"lon": 8.7390219,"filling_level": 76,"time": 1610316906,"maintenance": false, "update": false}
{"id": 7,"street": "Street 7","city": "Bahnhof_Gruze","country": "Switzerland","country_code": "CH","canton": "Zurich","canton_code": "ZH","lat": 47.4987187,"lon": 8.7510097,"filling_level": 81,"time": 1610316907,"maintenance": false,"update": false}
{"id": 8,"street": "Street 8","city": "Kantonsschule_Rychenberg","country": "Switzerland","country_code": "CH","canton": "Zurich","canton_code": "ZH","lat": 47.50506485,"lon": 8.738057076445287,"filling_level": 81,"time": 1610316908,"maintenance": false,"update": false}
{"id": 9,"street": "Street 9","city": "Stadthaus","country": "Switzerland","country_code": "CH","canton": "Zurich","canton_code": "ZH","lat": 47.5004116,"lon": 8.7306033,"filling_level": 83,"time": 1610316909,"maintenance": false,"update": false}
{"id": 10,"street": "Street 10","city": "Fachschule_Hard","country": "Switzerland","country_code": "CH","canton": "Zurich","canton_code": "ZH","lat": 47.49940865,"lon": 8.694544963356769,"filling_level": 84,"time": 1610316910,"maintenance": true,"update": false}
{"id": 11,"street": "Street 11","city": "Technopark","country": "Switzerland","country_code": "CH","canton": "Zurich","canton_code": "ZH","lat": 47.494773,"lon": 8.7162875,"filling_level": 83,"time": 1610316911,"maintenance": false, "update": false}
{"id": 12,"street": "Street 12","city": "Breite","country": "Switzerland","country_code": "CH","canton": "Zurich","canton_code": "ZH","lat": 47.4903458,"lon": 8.7260667,"filling_level": 76,"time": 1610316912,"maintenance": false,"update": false}
{"id": 13,"street": "Street 13","city": "Kantonsspital","country": "Switzerland","country_code": "CH","canton": "Zurich","canton_code": "ZH","lat": 47.506859899999995,"lon": 8.728524077691285,"filling_level": 74,"time": 1610316913,"maintenance": false,"update": false}
{"id": 14,"street": "Street 14","city": "Museum_Romerholz","country": "Switzerland","country_code": "CH","canton": "Zurich","canton_code": "ZH","lat": 47.511388350000004,"lon": 8.731626998025042,"filling_level": 79,"time": 1610316914,"maintenance": false,"update": false}
{"id": 15,"street": "Street 15","city": "Sulzer","country": "Switzerland","country_code": "CH","canton": "Zurich","canton_code": "ZH","lat": 47.4982047,"lon": 8.7189219,"filling_level": 79,"time": 1610316915,"maintenance": false,"update": false}
{"id": 16,"street": "Street 16","city": "Dattnau","country": "Switzerland","country_code": "CH","canton": "Zurich","canton_code": "ZH","lat": 47.4851347,"lon": 8.6915256,"filling_level": 84,"time": 1610316916,"maintenance": false,"update": false}
{"id": 17,"street": "Street 17","city": "Lindspitz","country": "Switzerland","country_code": "CH","canton": "Zurich","canton_code": "ZH","lat": 47.5091858,"lon": 8.7229233,"filling_level": 88,"time": 1610316917,"maintenance": false, "update": false}
{"id": 18,"street": "Street 18","city": "Rosenberg","country": "Switzerland","country_code": "CH","canton": "Zurich","canton_code": "ZH","lat": 47.5192734,"lon": 8.721567,"filling_level": 87,"time": 1610316918,"maintenance": false,"update": false}
{"id": 19,"street": "Street 19","city": "Alte_Kaserne","country": "Switzerland","country_code": "CH","canton": "Zurich","canton_code": "ZH","lat": 47.4978868,"lon": 8.7314601,"filling_level": 85,"time": 1610316919,"maintenance": false, "update": false}
{"id": 20,"street": "Street 20","city": "ZHAW_Technikum","country": "Switzerland","country_code": "CH","canton": "Zurich","canton_code": "ZH","lat": 47.4979024,"lon": 8.7296453,"filling_level": 83,"time": 1610316920,"maintenance": true,"update": false}
{"id": 21,"street": "Street 21","city": "ZHAW_Volkart","country": "Switzerland","country_code": "CH","canton": "Zurich","canton_code": "ZH","lat": 47.50213145,"lon": 8.72623043172608,"filling_level": 76,"time": 1610316921,"maintenance": false,"update": false}
{"id": 22,"street": "Street 22","city": "Schloss_Wulflingen","country": "Switzerland","country_code": "CH","canton": "Zurich","canton_code": "ZH","lat": 47.511302150000006,"lon": 8.699386223507224,"filling_level": 79,"time": 1610316922,"maintenance": false,"update": false}
{"id": 23,"street": "Street 23","city": "Rosenau","country": "Switzerland","country_code": "CH","canton": "Zurich","canton_code": "ZH","lat": 47.4870226,"lon": 8.7085805,"filling_level": 87,"time": 1610316923,"maintenance": true, "update": false}
{"id": 24,"street": "Street 24","city": "Feuerwehr","country": "Switzerland","country_code": "CH","canton": "Zurich","canton_code": "ZH","lat": 47.49534385,"lon": 8.73348852153845,"filling_level": 84,"time": 1610316924,"maintenance": false, "update": false}
{"id": 25,"street": "Street 25","city": "Technorama","country": "Switzerland","country_code": "CH","canton": "Zurich","canton_code": "ZH","lat": 47.5133411,"lon": 8.7631665,"filling_level": 86,"time": 1610316925,"maintenance": false,"update": false}
{"id": 26,"street": "Street 26","city": "ConCordia","country": "Switzerland","country_code": "CH","canton": "Zurich","canton_code": "ZH","lat": 47.5090675,"lon": 8.7172061,"filling_level": 79,"time": 1610316926,"maintenance": false,"update": false}

