[
		{
			"id": 0,
			"street": "Street 0",
			"city": "Winterthur",
			"country": "Switzerland",
			"country_code": "CH",
			"canton": "Zurich",
			"canton_code": "ZH",
			"point": [
				47.505637,
				8.724139
			],
			"lat": 47.505637,
			"lon": 8.724139,
			"filling_level": 0,
			"timestamp": "2020-11-17T14:00:00.000Z",
			"maintenance": false, 
			"update": false
		},
		{
			"id": 1,
			"street": "Street 1",
			"city": "Zurich",
			"country": "Switzerland",
			"country_code": "CH",
			"canton": "Zurich",
			"canton_code": "ZH",
			"point": [
				47.369501,
				8.538847
			],
			"lat": 47.369501,
			"lon": 8.538847,
			"filling_level": 20,
			"timestamp": "2020-11-17T16:00:00.000Z",
			"maintenance": false, 
			"update": false
		},
		{
			"id": 2,
			"street": "Street 2",
			"city": "Bern",
			"country": "Switzerland",
			"country_code": "CH",
			"canton": "Bern",
			"canton_code": "BE",
			"point": [
				46.948384,
				7.439946
			],
			"lat": 46.948384,
			"lon": 7.439946,
			"filling_level": 15,
			"timestamp": "2020-11-17T16:00:00.000Z",
			"maintenance": false, 
			"update": false
		},
		{
			"id": 3,
			"street": "Street 3",
			"city": "Luzern",
			"country": "Switzerland",
			"country_code": "CH",
			"canton": "Luzern",
			"canton_code": "LU",
			"point": [
				47.055245,
				8.305225
			],
			"lat": 47.055245,
			"lon": 8.305225,
			"filling_level": 8,
			"timestamp": "2020-11-17T16:00:00.000Z",
			"maintenance": false, 
			"update": false
		},
		{
			"id": 4,
			"street": "Street 4",
			"city": "Altdorf",
			"country": "Switzerland",
			"country_code": "CH",
			"canton": "Uri",
			"canton_code": "UR",
			"point": [
				46.880884,
				8.643002
			],
			"lat": 46.880884,
			"lon": 8.643002,
			"filling_level": 17,
			"timestamp": "2020-11-17T16:00:00.000Z",
			"maintenance": false, 
			"update": false
		},
		{
			"id": 5,
			"street": "Street 5",
			"city": "Schwyz",
			"country": "Switzerland",
			"country_code": "CH",
			"canton": "Schwyz",
			"canton_code": "SZ",
			"point": [
				47.021109,
				8.654043
			],
			"lat": 47.021109,
			"lon": 8.654043,
			"filling_level": 56,
			"timestamp": "2020-11-17T16:00:00.000Z",
			"maintenance": false, 
			"update": false
		},
		{
			"id": 6,
			"street": "Street 6",
			"city": "Sarnen",
			"country": "Switzerland",
			"country_code": "CH",
			"canton": "Obwalden",
			"canton_code": "OW",
			"point": [
				46.896079,
				8.24438
			],
			"lat": 46.896079,
			"lon": 8.24438,
			"filling_level": 43,
			"timestamp": "2020-11-17T16:00:00.000Z",
			"maintenance": false, 
			"update": false
		},
		{
			"id": 7,
			"street": "Street 7",
			"city": "Stans",
			"country": "Switzerland",
			"country_code": "CH",
			"canton": "Nidwalden",
			"canton_code": "NW",
			"point": [
				46.957229,
				8.36617
			],
			"lat": 46.957229,
			"lon": 8.36617,
			"filling_level": 42,
			"timestamp": "2020-11-17T16:00:00.000Z",
			"maintenance": false, 
			"update": false
		},
		{
			"id": 8,
			"street": "Street 8",
			"city": "Glarus",
			"country": "Switzerland",
			"country_code": "CH",
			"canton": "Glarus",
			"canton_code": "GL",
			"point": [
				47.041239,
				9.062997
			],
			"lat": 47.041239,
			"lon": 9.062997,
			"filling_level": 45,
			"timestamp": "2020-11-17T16:00:00.000Z",
			"maintenance": false, 
			"update": false
		},
		{
			"id": 9,
			"street": "Street 9",
			"city": "Zug",
			"country": "Switzerland",
			"country_code": "CH",
			"canton": "Zug",
			"canton_code": "ZG",
			"point": [
				47.167576,
				8.519434
			],
			"lat": 47.167576,
			"lon": 8.519434,
			"filling_level": 19,
			"timestamp": "2020-11-17T16:00:00.000Z",
			"maintenance": false, 
			"update": false
		},
		{
			"id": 10,
			"street": "Street 10",
			"city": "Fribourg",
			"country": "Switzerland",
			"country_code": "CH",
			"canton": "Fribourg",
			"canton_code": "FR",
			"point": [
				46.803191,
				7.149124
			],
			"lat": 46.803191,
			"lon": 7.149124,
			"filling_level": 26,
			"timestamp": "2020-11-17T16:00:00.000Z",
			"maintenance": true, 
			"update": false
		},
		{
			"id": 11,
			"street": "Street 11",
			"city": "Solothurn",
			"country": "Switzerland",
			"country_code": "CH",
			"canton": "Solothurn",
			"canton_code": "SO",
			"point": [
				47.210102,
				7.529706
			],
			"lat": 47.210102,
			"lon": 7.529706,
			"filling_level": 54,
			"timestamp": "2020-11-17T16:00:00.000Z",
			"maintenance": false, 
			"update": false
		},
		{
			"id": 12,
			"street": "Street 12",
			"city": "Basel_Stadt",
			"country": "Switzerland",
			"country_code": "CH",
			"canton": "Basel",
			"canton_code": "BS",
			"point": [
				47.559017,
				7.58876
			],
			"lat": 47.559017,
			"lon": 7.58876,
			"filling_level": 26,
			"timestamp": "2020-11-17T16:00:00.000Z",
			"maintenance": false, 
			"update": false
		},
		{
			"id": 13,
			"street": "Street 13",
			"city": "Liestal",
			"country": "Switzerland",
			"country_code": "CH",
			"canton": "Basel_Landschaft",
			"canton_code": "BL",
			"point": [
				47.484987,
				7.734502
			],
			"lat": 47.484987,
			"lon": 7.734502,
			"filling_level": 13,
			"timestamp": "2020-11-17T16:00:00.000Z",
			"maintenance": false, 
			"update": false
		},
		{
			"id": 14,
			"street": "Street 14",
			"city": "Schaffhausen",
			"country": "Switzerland",
			"country_code": "CH",
			"canton": "Schaffhausen",
			"canton_code": "SH",
			"point": [
				47.698682,
				8.632284
			],
			"lat": 47.698682,
			"lon": 8.632284,
			"filling_level": 84,
			"timestamp": "2020-11-17T16:00:00.000Z",
			"maintenance": false, 
			"update": false
		},
		{
			"id": 15,
			"street": "Street 15",
			"city": "Herisau",
			"country": "Switzerland",
			"country_code": "CH",
			"canton": "Appenzell_Ausserrhoden",
			"canton_code": "AR",
			"point": [
				47.388917,
				9.275753
			],
			"lat": 47.388917,
			"lon": 9.275753,
			"filling_level": 13,
			"timestamp": "2020-11-17T16:00:00.000Z",
			"maintenance": false, 
			"update": false
		},
		{
			"id": 16,
			"street": "Street 16",
			"city": "Appenzell",
			"country": "Switzerland",
			"country_code": "CH",
			"canton": "Appenzell_Innerrhoden",
			"canton_code": "AI",
			"point": [
				47.332025,
				9.40592
			],
			"lat": 47.332025,
			"lon": 9.40592,
			"filling_level": 26,
			"timestamp": "2020-11-17T16:00:00.000Z",
			"maintenance": false, 
			"update": false
		},
		{
			"id": 17,
			"street": "Street 17",
			"city": "St_Gallen",
			"country": "Switzerland",
			"country_code": "CH",
			"canton": "St_Gallen",
			"canton_code": "SG",
			"point": [
				47.425957,
				9.37646
			],
			"lat": 47.425957,
			"lon": 9.37646,
			"filling_level": 32,
			"timestamp": "2020-11-17T16:00:00.000Z",
			"maintenance": false, 
			"update": false
		},
		{
			"id": 18,
			"street": "Street 18",
			"city": "Chur",
			"country": "Switzerland",
			"country_code": "CH",
			"canton": "Graubunden",
			"canton_code": "GR",
			"point": [
				46.851053,
				9.527574
			],
			"lat": 46.851053,
			"lon": 9.527574,
			"filling_level": 27,
			"timestamp": "2020-11-17T16:00:00.000Z",
			"maintenance": false, 
			"update": false
		},
		{
			"id": 19,
			"street": "Street 19",
			"city": "Aarau",
			"country": "Switzerland",
			"country_code": "CH",
			"canton": "Aargau",
			"canton_code": "AG",
			"point": [
				47.390236,
				8.045227
			],
			"lat": 47.390236,
			"lon": 8.045227,
			"filling_level": 27,
			"timestamp": "2020-11-17T16:00:00.000Z",
			"maintenance": false, 
			"update": false
		},
		{
			"id": 20,
			"street": "Street 20",
			"city": "Frauenfeld",
			"country": "Switzerland",
			"country_code": "CH",
			"canton": "Thurgau",
			"canton_code": "TG",
			"point": [
				47.557165,
				8.894863
			],
			"lat": 47.557165,
			"lon": 8.894863,
			"filling_level": 27,
			"timestamp": "2020-11-17T16:00:00.000Z",
			"maintenance": true, 
			"update": false
		},
		{
			"id": 21,
			"street": "Street 21",
			"city": "Bellinzona",
			"country": "Switzerland",
			"country_code": "CH",
			"canton": "Tessin",
			"canton_code": "TI",
			"point": [
				46.191535,
				9.024186
			],
			"lat": 46.191535,
			"lon": 9.024186,
			"filling_level": 27,
			"timestamp": "2020-11-17T16:00:00.000Z",
			"maintenance": false, 
			"update": false
		},
		{
			"id": 22,
			"street": "Street 22",
			"city": "Lausanne",
			"country": "Switzerland",
			"country_code": "CH",
			"canton": "Vaud",
			"canton_code": "VD",
			"point": [
				46.520039,
				6.633279
			],
			"lat": 46.520039,
			"lon": 6.633279,
			"filling_level": 13,
			"timestamp": "2020-11-17T16:00:00.000Z",
			"maintenance": false, 
			"update": false
		},
		{
			"id": 23,
			"street": "Street 23",
			"city": "Sion",
			"country": "Switzerland",
			"country_code": "CH",
			"canton": "Wallis",
			"canton_code": "VS",
			"point": [
				46.232315,
				7.360869
			],
			"lat": 46.232315,
			"lon": 7.360869,
			"filling_level": 84,
			"timestamp": "2020-11-17T16:00:00.000Z",
			"maintenance": true, 
			"update": false
		},
		{
			"id": 24,
			"street": "Street 24",
			"city": "Neuchatel",
			"country": "Switzerland",
			"country_code": "CH",
			"canton": "Neuchatel",
			"canton_code": "NE",
			"point": [
				46.993842,
				6.929066
			],
			"lat": 46.993842,
			"lon": 6.929066,
			"filling_level": 77,
			"timestamp": "2020-11-17T16:00:00.000Z",
			"maintenance": false, 
			"update": false
		},
		{
			"id": 25,
			"street": "Street 25",
			"city": "Geneve",
			"country": "Switzerland",
			"country_code": "CH",
			"canton": "Geneve",
			"canton_code": "GE",
			"point": [
				46.205108,
				6.142976
			],
			"lat": 46.205108,
			"lon": 6.142976,
			"filling_level": 36,
			"timestamp": "2020-11-17T16:00:00.000Z",
			"maintenance": false, 
			"update": false
		},
		{
			"id": 26,
			"street": "Street 26",
			"city": "Delemont",
			"country": "Switzerland",
			"country_code": "CH",
			"canton": "Jura",
			"canton_code": "JU",
			"point": [
				47.363905,
				7.34596
			],
			"lat": 47.363905,
			"lon": 7.34596,
			"filling_level": 55,
			"timestamp": "2020-11-17T16:00:00.000Z",
			"maintenance": false, 
			"update": false
		}
]
